City_ID,City,Lat,Lng,Max Temp,Humidity,Cloudiness,Wind Speed,Country,Date
0,san antonio de pale,-1.4014,5.6325,25.71,79,100,6.13,GQ,1685417879
1,papatowai,-46.5619,169.4708,8.24,90,100,6.08,NZ,1685417880
2,kristiansund,63.1115,7.732,9.03,93,100,7.72,NO,1685417880
3,yarovoye,52.9273,78.58,18.08,42,0,5.29,RU,1685417641
4,zakamensk,50.3741,103.2863,17.75,37,100,4.3,RU,1685417880
5,bilibino,68.0546,166.4372,8.85,50,88,7.85,RU,1685417880
6,waitangi,-43.9535,-176.5597,14.34,94,100,5.81,NZ,1685417880
7,nambucca heads,-30.65,153.0,22.32,53,1,2.93,AU,1685417880
8,edinburgh of the seven seas,-37.0676,-12.3116,17.6,86,100,16.23,SH,1685417881
9,vorkuta,67.5,64.0,10.12,95,100,3.19,RU,1685417881
10,blackmans bay,-43.0167,147.3167,12.63,78,100,3.52,AU,1685417881
11,grytviken,-54.2811,-36.5092,-0.82,83,43,3.72,GS,1685417881
12,tyukhtet,56.5389,89.3011,13.11,71,100,1.53,RU,1685417882
13,longyearbyen,78.2186,15.6401,1.91,80,75,2.57,SJ,1685417882
14,puerto ayora,-0.7393,-90.3518,25.86,95,18,1.79,EC,1685417883
15,polonne,50.1242,27.5109,12.25,66,2,0.69,UA,1685417883
16,port alfred,-33.5906,26.891,17.32,95,99,0.89,ZA,1685417883
17,naze,28.3667,129.4833,24.51,87,44,4.52,JP,1685417883
18,ilulissat,69.2167,-51.1,0.01,74,100,2.57,GL,1685417883
19,mogocha,53.7333,119.7667,16.26,22,27,4.08,RU,1685417884
20,adamstown,-25.066,-130.1015,21.18,62,91,4.99,PN,1685417884
21,vel'sk,61.0701,42.0983,14.32,57,42,2.31,RU,1685417884
22,vilyuchinsk,52.9306,158.4028,9.03,98,100,2.56,RU,1685417885
23,tolanaro,-25.0319,46.9987,20.04,88,40,3.09,MG,1685417885
24,yokadouma,3.5167,15.05,20.25,99,72,0.35,CM,1685417885
25,bethel,41.3712,-73.414,14.31,73,0,3.09,US,1685417885
26,hove,50.8309,-0.1672,9.62,87,18,1.34,GB,1685417886
27,port-aux-francais,-49.35,70.2167,7.26,96,100,15.72,TF,1685417886
28,kayangel,8.0823,134.7173,29.05,74,97,3.48,PW,1685417886
29,barcelos,41.5388,-8.6151,16.58,98,97,0.53,PT,1685417663
30,remire-montjoly,4.9167,-52.2667,24.02,94,75,0.51,GF,1685417887
31,port mathurin,-19.6833,63.4167,24.76,69,3,8.12,MU,1685417887
32,miandrivazo,-19.5167,45.4667,21.84,59,0,1.03,MG,1685417887
33,udachny,66.4167,112.4,14.14,40,100,9.68,RU,1685417888
34,albany,42.6001,-73.9662,18.23,68,3,3.26,US,1685417762
35,chokwe,-24.5333,32.9833,21.53,77,100,1.97,MZ,1685417889
36,margaret river,-33.95,115.0667,20.6,72,65,7.54,AU,1685417889
37,basco,20.4487,121.9702,27.46,84,100,19.23,PH,1685417889
38,nova sintra,14.8667,-24.7167,20.48,81,40,10.35,CV,1685417889
39,iqaluit,63.7506,-68.5145,2.85,86,100,3.6,CA,1685417889
40,mitsamiouli,-11.3847,43.2844,25.16,78,40,2.57,KM,1685417890
41,enewetak,11.3474,162.3373,27.67,79,53,6.1,MH,1685417890
42,soure,-0.7167,-48.5233,26.42,84,100,4.37,BR,1685417890
43,melo,-32.3667,-54.1833,7.84,87,98,2.05,UY,1685417890
44,nuuk,64.1835,-51.7216,1.34,86,100,5.14,GL,1685417890
45,desnogorsk,54.1508,33.2815,12.82,67,1,0.91,RU,1685417891
46,tiksi,71.6872,128.8694,2.24,88,100,6.47,RU,1685417891
47,avarua,-21.2078,-159.775,23.03,68,75,4.12,CK,1685417828
48,lebu,-37.6167,-73.65,10.58,66,100,0.54,CL,1685417891
49,anadyr,64.75,177.4833,6.28,52,75,13.86,RU,1685417892
50,yellowknife,62.456,-114.3525,9.29,76,75,0.0,CA,1685417892
51,al ghayzah,16.2079,52.176,29.42,74,3,1.92,YE,1685417893
52,hadibu,12.65,54.0333,29.79,74,44,3.63,YE,1685417893
53,akureyri,65.6835,-18.0878,11.96,54,61,11.32,IS,1685417893
54,bredasdorp,-34.5322,20.0403,13.27,92,40,1.61,ZA,1685417893
55,punta arenas,-53.15,-70.9167,6.06,87,75,3.09,CL,1685417894
56,valparaiso,-33.0393,-71.6273,15.0,63,0,1.03,CL,1685417865
57,puerto natales,-51.7236,-72.4875,4.19,94,100,1.09,CL,1685417894
58,dhidhdhoo,6.8833,73.1,29.18,73,68,3.74,MV,1685417895
59,kudahuvadhoo,2.6708,72.8944,28.73,75,42,6.13,MV,1685417895
60,isafjordur,66.0755,-23.124,7.02,88,98,7.45,IS,1685417895
61,iskateley,67.6803,53.1512,13.91,48,19,4.57,RU,1685417895
62,rimouski,48.4488,-68.524,11.1,60,48,3.35,CA,1685417896
63,alofi,-19.0595,-169.9187,25.94,89,75,6.69,NU,1685417896
64,jamestown,42.097,-79.2353,21.8,46,0,4.63,US,1685417711
65,wailua homesteads,22.0669,-159.378,27.24,77,20,5.66,US,1685417599
66,berezovyy,51.6667,135.7,17.31,28,66,5.39,RU,1685417897
67,ziway,7.9333,38.7167,17.67,85,15,4.38,ET,1685417897
68,walvis bay,-22.9575,14.5053,13.03,67,0,4.67,NA,1685417897
69,dokkum,53.3222,5.997,11.11,76,100,3.6,NL,1685417897
70,qamdo,31.1667,97.2333,15.39,19,0,3.03,CN,1685417898
71,villa ojo de agua,-29.5,-63.6938,9.9,63,81,2.06,AR,1685417898
72,hithadhoo,-0.6,73.0833,28.68,69,67,3.45,MV,1685417898
73,chernyshevskiy,63.0128,112.4714,17.6,35,13,0.62,RU,1685417898
74,chonchi,-42.6128,-73.8092,6.56,96,100,2.32,CL,1685417899
75,katsuren-haebaru,26.3369,127.8719,30.22,74,75,4.12,JP,1685417899
76,kodiak,57.79,-152.4072,8.73,71,100,3.09,US,1685417600
77,pio duran,13.0293,123.445,29.15,80,100,9.03,PH,1685417900
78,lashio,22.9333,97.75,34.97,26,10,1.33,MM,1685417900
79,nagqu,31.5,92.0,14.01,26,1,3.95,CN,1685417900
80,bereket,39.2446,55.5154,31.39,9,100,6.52,TM,1685417900
81,alice springs,-23.7,133.8833,18.75,37,8,6.0,AU,1685417900
82,sao gabriel da cachoeira,-0.1303,-67.0892,22.43,99,96,0.46,BR,1685417901
83,tabas,33.5959,56.9244,28.12,16,50,1.03,IR,1685417901
84,fort mcmurray,56.7268,-111.381,19.77,30,0,3.09,CA,1685417901
85,monjaras,13.2006,-87.3742,27.68,81,98,1.2,HN,1685417901
86,huarmey,-10.0681,-78.1522,21.75,84,26,4.37,PE,1685417902
87,polyarnyy,69.1989,33.4478,6.48,63,94,6.76,RU,1685417902
88,tamanrasset,22.785,5.5228,18.95,8,0,1.03,DZ,1685417902
89,tselinnoye,53.0833,85.6667,14.12,66,100,0.82,RU,1685417902
90,ola,59.5833,151.2833,18.97,54,78,10.43,RU,1685417903
91,la penita de jaltomba,21.0333,-105.25,26.94,83,13,1.07,MX,1685417903
92,saipan,15.1355,145.701,30.39,100,75,6.17,MP,1685417903
93,wajir,1.7471,40.0573,24.98,78,75,2.06,KE,1685417904
94,utrik,11.2278,169.8474,27.77,76,42,6.16,MH,1685417904
95,beloyarskiy,63.7119,66.6722,17.29,87,100,3.49,RU,1685417904
96,tiszafoldvar,46.9833,20.25,17.28,90,0,1.03,HU,1685417904
97,ishigaki,24.3448,124.1572,28.07,89,75,12.35,JP,1685417905
98,aral,40.5156,81.2636,23.85,10,56,4.65,CN,1685417905
99,port augusta,-32.5,137.7667,20.93,54,58,3.6,AU,1685417905
100,mejit,10.2753,170.8646,27.46,77,94,5.2,MH,1685417905
101,las khorey,11.1595,48.1967,32.17,60,15,1.56,SO,1685417906
102,klaksvik,62.2266,-6.589,9.51,82,4,7.27,FO,1685417906
103,omalur,11.741,78.0456,29.14,70,73,1.54,IN,1685417906
104,emerald,-23.5333,148.1667,22.41,28,0,6.57,AU,1685417610
105,sitka,57.0531,-135.33,7.94,76,100,3.09,US,1685417906
106,ribeira grande,38.5167,-28.7,15.99,87,19,4.02,PT,1685417907
107,the pas,53.8251,-101.2541,20.01,77,100,1.03,CA,1685417907
108,lompoc,34.6391,-120.4579,15.43,85,100,2.06,US,1685417806
109,petropavlovsk-kamchatsky,53.0452,158.6483,7.33,93,100,3.0,RU,1685417907
110,la ronge,55.1001,-105.2842,15.14,55,100,0.51,CA,1685417907
111,taltal,-25.4,-70.4833,16.98,74,8,1.02,CL,1685417907
112,hawaiian paradise park,19.5933,-154.9731,25.73,74,20,3.09,US,1685417908
113,yen vinh,18.6667,105.6667,32.75,59,0,2.15,VN,1685417908
114,stanley,54.868,-1.6985,8.27,92,0,1.54,GB,1685417908
115,mahishadal,22.1833,87.9833,36.02,42,79,3.73,IN,1685417908
116,hamilton,39.1834,-84.5333,23.43,60,75,1.54,US,1685417720
117,georgetown,5.4112,100.3354,31.97,68,20,1.54,MY,1685417620
118,pangkalanbuun,-2.6833,111.6167,33.49,50,77,1.42,ID,1685417909
119,acapulco de juarez,16.8634,-99.8901,30.9,66,75,2.06,MX,1685417759
120,buka,40.8108,69.1986,25.81,25,0,3.97,UZ,1685417910
121,grootfontein,-19.5667,18.1167,12.76,33,30,2.57,NA,1685417910
122,san fernando,15.0286,120.6898,34.85,45,97,7.24,PH,1685417911
123,sinabang,2.4803,96.3801,29.38,67,87,2.73,ID,1685417911
124,guercif,34.2257,-3.3536,18.26,62,75,4.68,MA,1685417911
125,floro,61.5996,5.0328,9.02,93,100,2.06,NO,1685417911
126,ushuaia,-54.8,-68.3,6.81,76,0,1.03,AR,1685417685
127,st. john's,47.5649,-52.7093,2.18,89,75,5.66,CA,1685417758
128,weno,7.4515,151.8468,31.97,74,75,3.09,FM,1685417912
129,'ain el hammam,36.5647,4.3062,10.71,88,63,0.4,DZ,1685417912
130,monrovia,6.3005,-10.7969,25.87,87,89,1.31,LR,1685417913
131,corner brook,48.9667,-57.9484,-0.91,90,5,1.66,CA,1685417913
132,kolonia,50.9333,6.95,9.51,68,0,1.54,DE,1685417913
133,lander,42.833,-108.7307,17.22,48,80,2.99,US,1685417913
134,san patricio,28.017,-97.5169,27.92,85,58,0.22,US,1685417913
135,sola,-13.8833,167.55,26.6,70,97,8.18,VU,1685417914
136,nuku'alofa,-21.1333,-175.2,27.19,83,75,6.69,TO,1685417914
137,charikar,35.0136,69.1714,20.37,34,100,1.45,AF,1685417914
138,olonkinbyen,70.9221,-8.7187,1.47,99,100,5.55,SJ,1685417915
139,opuwo,-18.0607,13.84,9.69,43,0,1.29,NA,1685417915
140,uturoa,-16.7333,-151.4333,27.02,79,1,2.4,PF,1685417915
141,tura,25.5198,90.2201,33.45,41,58,1.65,IN,1685417916
142,tralee,52.2704,-9.7026,9.5,80,82,2.48,IE,1685417916
143,talnakh,69.4865,88.3972,5.67,58,100,3.06,RU,1685417916
144,san jose del guaviare,2.5729,-72.6459,23.21,91,100,0.54,CO,1685417916
145,tazacorte,28.629,-17.9293,18.54,78,0,2.68,ES,1685417917
146,yallahs,17.8748,-76.5624,28.85,88,71,1.98,JM,1685417851
147,pacific grove,36.6177,-121.9166,14.58,85,75,3.6,US,1685417918
148,shiguai,40.7058,110.2856,19.77,47,79,6.55,CN,1685417918
149,cannonvale,-20.2833,148.7,19.66,62,3,7.69,AU,1685417918
150,vieira de leiria,39.8695,-8.9324,15.23,95,100,2.91,PT,1685417918
151,puerto baquerizo moreno,-0.9,-89.6,25.3,84,10,5.04,EC,1685417919
152,westerkappeln,52.3167,7.8833,9.87,93,99,2.44,DE,1685417919
153,lorengau,-2.0226,147.2712,30.35,68,89,0.33,PG,1685417919
154,sufalat sama'il,23.3167,58.0167,33.82,35,0,2.78,OM,1685417919
155,brisas de zicatela,15.8369,-97.0419,30.29,66,20,1.54,MX,1685417920
156,yemetsk,63.4721,41.7941,12.94,58,63,2.72,RU,1685417920
157,hobyo,5.3505,48.5268,28.05,76,91,7.46,SO,1685417920
158,khilok,51.3674,110.4676,22.68,19,100,1.13,RU,1685417920
159,suileng,47.25,127.0833,20.98,26,32,5.0,CN,1685417921
160,dispur,26.1425,91.7889,32.97,39,37,1.4,IN,1685417921
161,quellon,-43.1167,-73.6167,9.14,100,100,5.14,CL,1685417921
162,sweet home,44.3976,-122.7362,22.62,89,0,1.0,US,1685417921
163,tazovsky,67.4667,78.7,9.49,71,100,6.95,RU,1685417922
164,eldorado,-23.7869,-54.2836,18.1,87,100,1.92,BR,1685417622
165,cantley,53.5,-1.05,11.12,91,27,2.34,GB,1685417922
166,coquimbo,-29.9533,-71.3436,13.85,88,100,1.54,CL,1685417922
167,zhangjiakou,40.81,114.8794,14.44,84,100,6.17,CN,1685417923
168,enriquillo,17.9,-71.2333,25.94,86,94,2.51,DO,1685417923
169,afaahiti,-17.75,-149.2833,26.7,78,15,3.55,PF,1685417923
170,suva,-18.1416,178.4415,28.71,79,75,5.66,FJ,1685417923
171,rongelap,11.1635,166.8941,27.24,81,100,6.94,MH,1685417923
172,manzhouli,49.6,117.4333,21.97,18,18,4.9,CN,1685417924
173,port elizabeth,-33.918,25.5701,16.72,97,20,1.54,ZA,1685417924
174,ngorongoro,-3.2397,35.4875,10.14,97,97,2.15,TZ,1685417924
175,bikenibeu village,1.3673,173.1241,30.98,70,75,2.57,KI,1685417925
176,zapolyarnyy,69.4154,30.8136,5.6,86,86,4.03,RU,1685417925
177,aasiaat,68.7098,-52.8699,-2.15,82,100,6.55,GL,1685417926
178,usinsk,65.9939,57.5281,13.04,62,100,7.56,RU,1685417926
179,waingapu,-9.6567,120.2641,28.02,67,86,6.05,ID,1685417926
180,holualoa,19.6228,-155.9522,22.27,97,48,2.68,US,1685417926
181,new norfolk,-42.7826,147.0587,13.28,68,100,2.68,AU,1685417927
182,qaqortoq,60.7167,-46.0333,1.47,83,38,2.78,GL,1685417927
183,mogok,22.9167,96.5,31.67,33,58,1.24,MM,1685417927
184,maragogi,-9.0122,-35.2225,24.24,86,72,2.94,BR,1685417696
185,crane,31.3974,-102.3501,26.85,38,0,5.71,US,1685417928
186,nar'yan-mar,67.6713,53.087,13.95,48,15,4.63,RU,1685417928
187,hami,42.8,93.45,19.53,30,42,5.58,CN,1685417928
188,palikir - national government center,6.9248,158.1611,28.04,76,96,6.13,FM,1685417928
189,umm kaddadah,13.6017,26.6876,25.78,53,10,1.4,SD,1685417929
190,hermanus,-34.4187,19.2345,13.22,80,80,1.33,ZA,1685417929
191,invercargill,-46.4,168.35,8.62,88,100,4.94,NZ,1685417929
192,vila velha,-20.3297,-40.2925,21.97,73,75,3.6,BR,1685417929
193,papao,-17.75,-149.55,27.59,75,18,1.52,PF,1685417929
194,manggar,-2.8833,108.2667,29.39,74,65,4.94,ID,1685417929
195,darab,28.7519,54.5444,30.9,21,8,0.81,IR,1685417930
196,carnarvon,-24.8667,113.6333,25.13,39,19,1.48,AU,1685417930
197,srivardhan,18.0333,73.0167,32.07,59,25,2.54,IN,1685417930
198,cedral,23.8,-100.7333,22.45,35,17,3.35,MX,1685417930
199,kijang,35.2442,129.2139,19.85,90,100,4.95,KR,1685417930
200,kitale,1.0157,35.0062,12.02,91,13,0.62,KE,1685417931
201,dolores,-36.3132,-57.6792,7.75,82,100,2.72,AR,1685417931
202,igrim,63.1906,64.4162,17.1,63,71,5.72,RU,1685417931
203,kidal,18.4411,1.4078,30.32,16,73,6.78,ML,1685417931
204,barro alto,-11.7608,-41.9117,19.09,79,59,2.08,BR,1685417931
205,salinopolis,-0.6136,-47.3561,25.98,86,97,4.66,BR,1685417931
206,awjilah,29.1081,21.2869,23.31,32,86,4.8,LY,1685417932
207,dadukou,26.5479,101.7054,36.39,21,0,0.48,CN,1685417932
208,dzhangala,49.2167,50.3333,27.13,22,100,8.84,KZ,1685417932
209,koh kong,11.6175,102.9806,30.47,67,96,2.71,KH,1685417932
210,araguaina,-7.1911,-48.2072,25.54,69,66,1.25,BR,1685417932
211,happy valley-goose bay,53.3168,-60.3315,4.17,70,75,4.63,CA,1685417932
212,torghay,49.6339,63.4981,28.03,23,96,2.98,KZ,1685417933
213,cabo san lucas,22.8909,-109.9124,26.61,60,0,2.57,MX,1685417839
214,morondava,-20.2833,44.2833,22.28,54,0,2.94,MG,1685417933
215,volksrust,-27.3654,29.8818,6.84,96,100,1.08,ZA,1685417933
216,wellington,-41.2866,174.7756,15.81,89,75,8.75,NZ,1685417715
217,dakhla,23.6848,-15.958,19.0,89,47,7.18,EH,1685417933
218,la passe,45.5549,-0.8967,18.13,93,0,5.18,FR,1685417933
219,trapani,37.8333,12.6667,18.49,82,40,2.06,IT,1685417726
220,nadi,-17.8,177.4167,28.0,83,40,4.12,FJ,1685417934
221,pariaman,-0.619,100.12,30.03,65,68,2.7,ID,1685417934
222,revda,56.801,59.9303,17.5,57,18,4.19,RU,1685417934
223,lautoka,-17.6167,177.4667,27.92,83,40,4.12,FJ,1685417934
224,vernon,50.2581,-119.2691,26.2,31,6,1.54,CA,1685417934
225,piti village,13.4626,144.6933,24.03,94,100,2.57,GU,1685417935
226,birganj,27.0104,84.8774,37.73,22,22,1.16,NP,1685417935
227,sakaiminato,35.55,133.2333,21.96,88,75,5.66,JP,1685417935
228,tocopilla,-22.092,-70.1979,18.85,71,8,3.35,CL,1685417935
229,mezhdurechenskiy,59.6,65.9333,21.4,38,2,5.33,RU,1685417935
230,'anat al qadimah,34.4659,41.9331,24.26,61,37,1.19,IQ,1685417935
231,aykhal,66.0,111.5,12.58,63,100,6.9,RU,1685417936
232,lensk,60.7253,114.9278,17.2,32,51,2.24,RU,1685417936
233,shimoda,34.6667,138.95,21.2,96,100,2.89,JP,1685417936
234,oriental,19.3667,-97.6167,14.41,77,47,0.94,MX,1685417936
235,vicosa,-20.7539,-42.8819,15.21,98,74,2.9,BR,1685417911
236,pucheng,27.9233,118.5333,34.94,52,7,1.47,CN,1685417937
237,flying fish cove,-10.4217,105.6791,27.82,78,75,5.14,CX,1685417937
238,anna regina,7.2644,-58.5077,25.62,88,100,3.38,GY,1685417937
239,carutapera,-1.195,-46.02,24.54,94,57,2.5,BR,1685417937
240,morant bay,17.8815,-76.4093,28.79,87,69,1.9,JM,1685417937
241,constantia,44.1833,28.65,16.5,81,99,5.22,RO,1685417937
242,malpica,43.3228,-8.8105,15.19,76,40,1.36,ES,1685417938
243,kiffa,16.6166,-11.4045,36.32,21,97,6.1,MR,1685417938
244,misratah,32.3754,15.0925,20.04,81,98,9.26,LY,1685417938
245,vernal,40.4555,-109.5287,21.84,26,0,4.63,US,1685417703
246,gaspe,48.8334,-64.4819,6.12,87,100,1.03,CA,1685417938
247,kill devil hills,36.0307,-75.676,19.43,93,0,3.09,US,1685417939
248,codrington,-38.2667,141.9667,17.53,73,98,6.89,AU,1685417939
249,alexandria,31.2156,29.9553,18.3,76,8,1.37,EG,1685417885
250,colonia,50.9333,6.95,9.95,68,0,1.54,DE,1685417769
251,poyarkovo,49.6,128.6833,18.75,29,8,5.07,RU,1685417939
252,veraval,20.9,70.3667,30.62,65,0,5.44,IN,1685417939
253,bumba,2.1833,22.4667,21.24,98,96,0.66,CD,1685417939
254,satka,55.0425,59.04,20.26,63,100,1.82,RU,1685417940
255,bamboo flat,11.7,92.7167,31.05,74,75,3.09,IN,1685417940
256,gizo,-8.103,156.8419,27.9,78,84,4.62,SB,1685417940
257,college,64.8569,-147.8028,9.97,90,100,6.69,US,1685417940
258,amahai,-3.3333,128.9167,29.49,78,93,3.91,ID,1685417940
259,borodianka,50.6448,29.9201,15.84,71,0,1.7,UA,1685417941
260,doka,13.5167,35.7667,25.0,67,87,4.99,SD,1685417941
261,lincoln city,44.9582,-124.0179,13.81,79,1,8.05,US,1685417689
262,fort bragg,35.139,-79.006,19.34,97,100,2.06,US,1685417908
263,itoman,26.1247,127.6694,30.22,79,75,7.72,JP,1685417941
264,chibougamau,49.9168,-74.3659,9.79,66,0,0.0,CA,1685417942
265,mosjoen,65.836,13.1908,6.29,70,100,1.54,NO,1685417942
266,mercedes,-34.6515,-59.4307,8.91,80,99,2.45,AR,1685417942
267,saint-joseph,-21.3667,55.6167,20.21,72,19,2.94,RE,1685417943
268,coahuayana de hidalgo,18.7,-103.6583,26.33,88,39,1.4,MX,1685417943
269,mount gambier,-37.8333,140.7667,15.66,81,100,4.88,AU,1685417943
270,ust'-kut,56.7938,105.7672,18.85,29,99,4.28,RU,1685417944
271,ewo,-0.8725,14.8206,23.03,86,60,1.42,CG,1685417944
272,bardai,11.65,7.2333,24.79,75,83,5.02,NG,1685417944
273,west island,-12.1568,96.8225,28.99,74,40,6.17,CC,1685417945
274,vrede,-27.4257,29.1659,7.0,93,100,2.01,ZA,1685417945
275,dudinka,69.4058,86.1778,5.9,44,99,3.09,RU,1685417945
276,minas de marcona,-15.2119,-75.1103,13.47,90,54,5.67,PE,1685417946
277,whitehorse,60.7161,-135.0538,10.43,30,75,6.71,CA,1685417946
278,campina,45.1333,25.7333,15.05,80,56,2.51,RO,1685417946
279,kapoeta,4.7717,33.5903,25.12,44,3,7.54,SS,1685417946
280,shahin dezh,36.6793,46.5669,21.14,49,100,0.24,IR,1685417947
281,kiliya,45.4552,29.2637,16.88,76,100,4.29,UA,1685417947
282,hassi messaoud,31.6804,6.0729,21.92,43,82,4.63,DZ,1685417947
283,inhambane,-23.865,35.3833,20.63,82,96,1.59,MZ,1685417948
284,isangel,-19.55,169.2667,27.06,61,75,4.12,VU,1685417948
285,saldanha,-33.0117,17.9442,12.03,90,98,6.39,ZA,1685417948
286,kingston,17.997,-76.7936,28.53,87,20,3.6,JM,1685417781
287,kemin,42.7846,75.6892,21.29,36,0,0.92,KG,1685417949
288,vila franca do campo,37.7167,-25.4333,17.23,87,100,1.6,PT,1685417949
289,namibe,-15.1961,12.1522,17.03,68,38,4.88,AO,1685417950
290,priladozhskiy,59.85,31.4833,9.74,99,100,3.05,RU,1685417950
291,adh dhayd,25.2881,55.8816,30.44,21,2,1.83,AE,1685417950
292,ancud,-41.8697,-73.8203,8.3,91,100,3.15,CL,1685417950
293,praia da vitoria,38.7333,-27.0667,16.14,94,40,1.05,PT,1685417951
294,prince rupert,54.3161,-130.3201,10.05,63,56,5.14,CA,1685417885
295,arraial do cabo,-22.9661,-42.0278,21.96,71,100,6.28,BR,1685417951
296,mossel bay,-34.1831,22.146,13.96,84,18,3.65,ZA,1685417952
297,irbit,57.6705,63.071,21.05,47,0,4.06,RU,1685417952
298,san sebastian de la gomera,28.0916,-17.1133,20.21,72,0,1.54,ES,1685417952
299,diego de almagro,-26.3667,-70.05,14.43,48,3,0.59,CL,1685417953
300,talavera de la reina,39.9635,-4.8308,13.65,95,100,1.72,ES,1685417953
301,solleftea,63.1667,17.2667,7.42,65,8,4.59,SE,1685417953
302,redencao,-4.2258,-38.7306,22.49,98,41,0.04,BR,1685417954
303,yung shue wan,22.2333,114.1167,35.19,59,7,4.11,HK,1685417954
304,calama,-22.4667,-68.9333,8.27,19,0,6.17,CL,1685417954
305,ringkobing,56.0901,8.244,10.57,89,97,5.68,DK,1685417955
306,fisterra,42.9049,-9.2629,16.12,93,49,2.34,ES,1685417955
307,sechura,-5.5569,-80.8222,24.22,73,90,6.19,PE,1685417955
308,kailua-kona,19.6406,-155.9956,24.34,97,37,2.68,US,1685417956
309,kapuskasing,49.4169,-82.4331,20.0,52,20,2.06,CA,1685417702
310,las vegas,36.175,-115.1372,31.2,10,20,7.72,US,1685417819
311,marialva,-23.485,-51.7917,16.26,80,100,4.58,BR,1685417956
312,manta,-0.95,-80.7333,25.88,83,75,3.09,EC,1685417851
313,oxford,51.7522,-1.256,8.75,91,20,2.06,GB,1685417871
314,susuman,62.7833,148.1667,14.82,32,33,2.92,RU,1685417958
315,hasaki,35.7333,140.8333,23.22,89,100,1.64,JP,1685417958
316,polyarnyye zori,67.3661,32.4981,6.89,80,100,2.09,RU,1685417958
317,faya-largeau,17.9257,19.1043,29.63,31,2,5.24,TD,1685417958
318,coari,-4.085,-63.1414,26.18,79,99,0.41,BR,1685417959
319,zeya,53.75,127.2667,17.97,37,100,0.65,RU,1685417959
320,natal,-5.795,-35.2094,24.12,100,75,1.54,BR,1685417959
321,taoudenni,22.6783,-3.9836,27.87,35,41,5.06,ML,1685417959
322,kavaratti,10.5669,72.642,29.82,72,77,3.63,IN,1685417960
323,port saint john's,-31.6229,29.5448,19.37,87,96,4.67,ZA,1685417960
324,saint-pierre,-21.3393,55.4781,20.82,64,0,3.6,RE,1685417961
325,ouadda,8.0777,22.4007,19.01,96,49,0.97,CF,1685417961
326,tofol,5.3248,163.0078,27.98,78,73,4.17,FM,1685417961
327,mchinji,-13.7984,32.8802,12.71,85,2,2.1,MW,1685417962
328,okhotsk,59.3833,143.3,10.26,64,98,1.89,RU,1685417962
329,vung tau,10.346,107.0843,30.25,68,100,3.93,VN,1685417962
330,angra do heroismo,38.65,-27.2167,16.34,94,40,1.12,PT,1685417962
331,kula,38.5473,28.6498,14.31,90,100,0.87,TR,1685417963
332,zliten,32.4674,14.5687,19.82,82,100,7.1,LY,1685417963
333,loango,-4.6719,11.8312,23.81,94,100,1.54,CG,1685417963
334,tongliao,43.6125,122.2653,24.0,22,100,4.07,CN,1685417963
335,fortuna,40.5982,-124.1573,11.86,93,100,3.09,US,1685417964
336,panj,37.2363,69.0991,29.61,12,16,0.42,TJ,1685417964
337,mufulira,-12.5498,28.2407,11.67,88,25,2.14,ZM,1685417964
338,keflavik,64.0049,-22.5624,7.95,93,100,7.72,IS,1685417964
339,nema,57.5067,50.5011,15.57,65,17,1.34,RU,1685417965
340,kousseri,12.0769,15.0306,29.26,57,96,2.39,CM,1685417965
341,kerikeri,-35.2268,173.9474,17.31,81,72,2.01,NZ,1685417965
342,mari,-7.06,-35.3194,23.45,95,57,2.68,BR,1685417965
343,sarankhola,22.3082,89.7897,34.77,47,100,1.89,BD,1685417965
344,terrace,54.5163,-128.6035,12.95,43,75,3.6,CA,1685417786
345,labrador city,52.9463,-66.9114,7.95,61,100,2.06,CA,1685417966
346,ikalamavony,-21.15,46.5833,14.27,91,15,2.39,MG,1685417966
347,takoradi,4.8845,-1.7554,26.02,85,96,1.99,GH,1685417966
348,lesozavodsk,45.4794,133.4244,16.79,51,30,4.85,RU,1685417967
349,la gi,10.6667,107.7833,32.39,58,94,5.42,VN,1685417967
350,kualakapuas,-3.0091,114.3876,33.66,49,24,1.37,ID,1685417967
351,aoulef,26.9667,1.0833,25.44,18,17,6.39,DZ,1685417967
352,santa cruz de tenerife,28.4682,-16.2546,19.79,75,0,2.06,ES,1685417968
353,wakiso,0.4044,32.4594,23.75,93,98,1.48,UG,1685417968
354,kapit,2.0167,112.9333,33.93,53,58,0.74,MY,1685417968
355,andovoranto,-18.95,49.1,21.62,85,54,3.73,MG,1685417969
356,beberibe,-4.1797,-38.1306,25.37,87,11,4.65,BR,1685417969
357,arteche,12.2645,125.4048,32.65,57,100,4.97,PH,1685417969
358,pisco,-13.7,-76.2167,18.9,77,1,1.03,PE,1685417970
359,sosnovo-ozerskoye,52.5249,111.5418,18.42,20,90,2.08,RU,1685417970
360,carauari,-4.8828,-66.8958,22.9,98,30,0.9,BR,1685417970
361,altay,47.8667,88.1167,12.99,48,35,2.19,CN,1685417970
362,al kharijah,25.4514,30.5464,25.38,32,0,0.89,EG,1685417971
363,raduzhny,62.0961,77.475,20.44,29,38,6.42,RU,1685417971
364,ca mau,9.1769,105.15,33.22,54,79,4.39,VN,1685417971
365,sidhpura,27.6333,78.8833,33.98,33,0,1.62,IN,1685417971
366,zaysan,47.4667,84.8667,13.65,50,100,4.17,KZ,1685417972
367,onega,63.9061,38.1404,8.75,66,69,2.37,RU,1685417972
368,badou,7.5833,0.6,22.93,97,95,1.19,TG,1685417973
369,yigo village,13.5361,144.8886,23.16,94,100,2.57,GU,1685417974
370,helegiu,46.35,26.75,8.53,77,55,1.77,RO,1685417974
371,arkalyk,50.2486,66.9114,27.77,23,23,4.13,KZ,1685417974
372,gadzhiyevo,69.2551,33.3362,6.39,62,92,7.09,RU,1685417974
373,pitimbu,-7.4706,-34.8086,24.33,83,96,4.03,BR,1685417974
374,mtwara,-10.2667,40.1833,21.71,92,8,4.29,TZ,1685417975
375,khulm,36.6974,67.6983,29.67,10,25,2.43,AF,1685417975
376,ibotirama,-12.1853,-43.2206,24.0,45,75,1.07,BR,1685417975
377,svirsk,53.0858,103.3325,13.11,56,100,4.77,RU,1685417976
378,puerto san jose,13.9256,-90.8244,27.26,80,39,3.69,GT,1685417976
379,robore,-18.3333,-59.75,16.35,93,100,1.36,BO,1685417976
380,fort st. john,56.2499,-120.8529,16.94,22,20,5.66,CA,1685417714
381,kidatu,-7.6992,36.9572,19.16,91,8,0.98,TZ,1685417976
382,ngaoundere,7.3167,13.5833,17.69,93,97,0.75,CM,1685417977
383,humaita,-7.5061,-63.0208,25.48,74,99,0.78,BR,1685417977
384,aldinga beach,-35.2793,138.4604,17.89,81,81,6.46,AU,1685417977
385,howrah,22.5892,88.3103,34.0,59,20,0.0,IN,1685417978
386,mana,5.6592,-53.7767,25.07,91,100,2.82,GF,1685417978
387,angaur state,6.906,134.13,29.04,75,58,3.85,PW,1685417978
388,maua,-23.6678,-46.4614,15.89,92,100,3.15,BR,1685417979
389,badger,64.8,-147.5333,9.93,88,100,6.69,US,1685417979
390,coro,11.4045,-69.6734,26.48,86,94,5.07,VE,1685417979
391,myeik,12.4333,98.6,30.38,62,100,3.35,MM,1685417979
392,beroroha,-21.6667,45.1667,17.65,77,0,1.41,MG,1685417979
393,ar rass,25.8694,43.4973,28.92,37,100,4.59,SA,1685417980
394,mitchell,43.7094,-98.0298,25.99,50,0,4.12,US,1685417773
395,palu,-0.8917,119.8707,32.15,63,30,1.12,ID,1685417980
396,eraan,9.0629,117.7016,31.28,64,93,5.67,PH,1685417980
397,klyuchi,52.2667,79.1667,17.48,46,0,6.04,RU,1685417981
398,sisimiut,66.9395,-53.6735,1.03,70,98,5.91,GL,1685417981
399,thinadhoo,0.5333,72.9333,29.25,69,91,5.21,MV,1685417981
400,pizarro,4.9533,-77.366,25.71,86,100,1.2,CO,1685417981
401,newman,37.3138,-121.0208,21.19,36,65,1.79,US,1685417981
402,mount isa,-20.7333,139.5,23.87,16,2,5.66,AU,1685417982
403,verkhnevilyuysk,63.4453,120.3167,20.08,30,16,1.54,RU,1685417982
404,tateyama,34.9833,139.8667,19.02,84,100,5.86,JP,1685417982
405,haiku-pauwela,20.9219,-156.3051,26.01,65,40,10.29,US,1685417983
406,diawara,15.022,-12.5437,34.81,28,86,5.28,SN,1685417983
407,al qubbah,32.7616,22.2424,15.41,63,73,3.11,LY,1685417984
408,poputnaya,44.5125,41.4392,17.34,88,100,2.26,RU,1685417984
409,ust-nera,64.5667,143.2,16.4,50,96,1.14,RU,1685417984
410,altai,46.3722,96.2583,6.31,49,92,7.09,MN,1685417985
411,torshavn,62.0097,-6.7716,9.66,90,8,9.0,FO,1685417985
412,saint-philippe,-21.3585,55.7679,20.77,73,38,2.66,RE,1685417985
413,balasore,21.4942,86.9317,36.28,39,60,4.09,IN,1685417985
414,argo,37.6333,22.7333,15.99,72,1,1.35,GR,1685417986
415,bullsbrook,-31.6667,116.0,23.84,43,40,6.17,AU,1685417986
416,zhangye,38.9342,100.4517,23.46,23,2,3.38,CN,1685417987
417,colon,9.3592,-79.9014,25.53,87,100,1.13,PA,1685417987
418,cabedelo,-6.9811,-34.8339,24.37,85,66,4.24,BR,1685417987
419,el triunfo,-1.9333,-79.9667,27.02,91,95,1.58,EC,1685417987
420,kenda,23.2,86.5333,36.68,30,66,0.98,IN,1685417987
421,siwa oasis,29.2041,25.5195,22.09,51,5,4.28,EG,1685417988
422,zhaotong,27.3167,103.7167,24.43,58,88,2.27,CN,1685417824
423,concepcion,-36.827,-73.0498,7.89,87,100,2.06,CL,1685417988
424,mahajanga,-15.7167,46.3167,22.01,83,20,1.54,MG,1685417988
425,laguna,38.421,-121.4238,20.73,66,40,6.69,US,1685417989
426,baruun-urt,46.6806,113.2792,19.97,23,100,4.57,MN,1685417989
427,ixtapa,20.7,-105.2,26.57,83,100,3.6,MX,1685417771
428,ergli,56.8975,25.6367,9.89,59,99,2.4,LV,1685417989
429,najran,17.4924,44.1277,21.36,48,94,2.15,SA,1685417990
430,safford,32.834,-109.7076,29.51,21,0,7.72,US,1685417990
431,kapa'a,22.0752,-159.319,27.99,77,20,5.66,US,1685417815
432,yeppoon,-23.1333,150.7333,22.88,46,0,4.6,AU,1685417990
433,gwadar,25.1216,62.3254,29.38,78,18,4.03,PK,1685417990
434,songea,-10.6833,35.65,13.36,80,10,0.99,TZ,1685417991
435,ulladulla,-35.35,150.4667,18.76,44,55,0.7,AU,1685417991
436,qarazhal,48.0078,70.7903,23.25,32,35,1.13,KZ,1685417991
437,kalevala,65.2,31.1667,7.09,61,41,3.2,RU,1685417991
438,douentza,14.9951,-2.9517,31.08,22,100,1.63,ML,1685417991
439,sao domingos do maranhao,-5.5758,-44.3853,24.91,76,63,1.32,BR,1685417992
440,birjand,32.8663,59.2211,22.26,15,0,3.09,IR,1685417992
441,usogorsk,63.4106,48.6872,15.1,55,28,3.95,RU,1685417992
442,isabela,6.7085,121.9711,32.03,63,93,3.17,PH,1685417992
443,nova xavantina,-14.6667,-52.35,21.23,62,7,1.09,BR,1685417992
444,niquero,20.0431,-77.5828,26.39,81,5,1.49,CU,1685417993
445,katsuura,35.1333,140.3,19.45,79,100,4.82,JP,1685417993
446,ta`u,-14.2336,-169.5144,27.77,81,44,8.52,AS,1685417993
447,kurumkan,54.3,110.3,18.36,34,61,1.75,RU,1685417993
448,bocas del toro,9.3333,-82.25,25.03,84,100,3.54,PA,1685417994
449,bubaque,11.2833,-15.8333,27.36,85,100,6.61,GW,1685417994
450,atafu village,-8.5421,-172.5159,29.04,71,100,5.3,TK,1685417994
451,casper,42.8666,-106.3131,17.07,51,0,3.6,US,1685417994
452,pemangkat,1.1667,108.9667,30.71,63,100,3.31,ID,1685417994
453,nagykanizsa,46.4535,16.991,15.06,92,36,2.87,HU,1685417995
454,labytnangi,66.6572,66.4183,12.62,94,100,3.26,RU,1685417995
455,cutlerville,42.8409,-85.6636,20.78,58,5,2.75,US,1685417959
456,amalapuram,16.5833,82.0167,34.24,55,65,2.69,IN,1685417995
457,lata,40.1629,-8.3327,16.15,99,100,1.11,PT,1685417995
458,vallenar,-28.5708,-70.7581,15.69,57,26,0.64,CL,1685417996
459,thompson,55.7435,-97.8558,20.09,83,100,2.06,CA,1685417996
460,sho'rchi,38.0141,67.7899,28.68,12,84,2.1,UZ,1685417996
461,labasa,-16.4167,179.3833,28.87,74,55,3.53,FJ,1685417996
462,awang,7.1531,124.2211,29.86,68,93,2.9,PH,1685417996
463,queenstown,-31.8976,26.8753,11.57,88,100,0.49,ZA,1685417996
464,sovetskiy,61.3614,63.5842,18.32,46,0,5.61,RU,1685417997
465,castlebar,53.85,-9.3,11.99,93,72,1.22,IE,1685417997
466,geraldton,-28.7667,114.6,26.23,53,61,5.14,AU,1685417997
467,lahaina,20.8783,-156.6825,27.0,80,37,4.23,US,1685417732
468,sawang wirawong,15.2416,105.0922,34.4,55,39,2.13,TH,1685417997
469,kyshtovka,56.555,76.6271,18.35,45,7,2.26,RU,1685417997
470,kosonsoy,41.2561,71.5508,23.31,21,0,1.29,UZ,1685417998
471,tindouf,27.6711,-8.1474,16.25,63,0,9.26,DZ,1685417998
472,bria,6.5423,21.9863,19.13,95,96,0.55,CF,1685417998
473,soto la marina,23.7667,-98.2167,24.8,84,66,1.45,MX,1685417998
474,oranjemund,-28.55,16.4333,13.39,78,68,8.1,NA,1685417998
475,urengoy,65.9667,78.3667,16.44,45,100,5.37,RU,1685417998
476,fort saskatchewan,53.7168,-113.2187,20.43,59,98,2.57,CA,1685417998
477,freetown,8.484,-13.2299,26.56,87,100,2.5,SL,1685417999
478,bakchar,57.0186,82.0711,20.03,34,3,2.93,RU,1685417999
479,mahibadhoo,3.7833,72.9667,28.85,73,43,4.74,MV,1685417999
480,jinka,5.65,36.65,16.14,75,23,1.55,ET,1685417999
481,port lincoln,-34.7333,135.8667,18.26,70,59,7.67,AU,1685418000
482,ituango,7.1712,-75.764,17.22,98,100,0.43,CO,1685418000
483,mawlaik,23.6333,94.4167,41.06,24,12,0.57,MM,1685418000
484,sudak,44.85,34.9667,17.15,91,87,1.71,UA,1685418000
485,callao,-12.0667,-77.15,22.16,73,100,5.14,PE,1685418000
486,san rafael,-34.6177,-68.3301,11.42,46,43,0.98,AR,1685418001
487,ambovombe,-25.1667,46.0833,19.47,87,0,4.21,MG,1685418001
488,nova olinda do norte,-3.8881,-59.0942,24.34,90,100,1.3,BR,1685418002
489,ungsang-nodongjagu,42.3578,130.4622,19.6,46,45,1.89,KP,1685418003
490,susanville,40.4163,-120.653,17.91,56,0,1.54,US,1685417857
491,east london,-33.0153,27.9116,17.52,88,0,4.12,ZA,1685418006
492,necochea,-38.5473,-58.7368,9.79,70,100,5.64,AR,1685418006
493,santa cruz del norte,23.1539,-81.9236,26.34,74,100,1.88,CU,1685417760
494,almazan,41.4865,-2.5309,9.73,88,14,2.24,ES,1685418008
495,ilam,26.9167,87.9167,27.99,52,3,2.53,NP,1685418008
496,beauharnois,45.3168,-73.8659,17.19,52,20,3.6,CA,1685418008
497,spring creek,40.7266,-115.5859,19.83,54,100,0.56,US,1685418009
498,gisborne,-38.6533,178.0042,17.74,76,100,1.15,NZ,1685418009
499,acarau,-2.8856,-40.12,25.18,88,85,5.21,BR,1685418009
500,san luis potosi,22.5,-100.5,17.54,84,47,4.5,MX,1685418010
501,ghadamis,30.1337,9.5007,20.53,51,88,4.0,LY,1685418010
502,vorgashor,67.5833,63.95,10.0,95,100,3.45,RU,1685418010
503,lospalos,-8.5186,127.0025,25.2,69,78,4.85,TL,1685418010
504,lebyazh'ye,55.2689,66.4947,24.19,48,12,4.66,RU,1685418011
505,rexburg,43.826,-111.7897,17.73,66,100,4.12,US,1685417887
506,itamaraca,-7.7478,-34.8256,25.03,85,92,3.41,BR,1685418011
507,at taj,24.2049,23.2857,22.05,26,0,3.42,LY,1685418012
508,oyem,1.5995,11.5793,19.69,99,67,1.04,GA,1685418012
509,serov,59.6033,60.5787,17.59,50,0,3.75,RU,1685418012
510,lihue,21.9789,-159.3672,27.58,71,20,5.66,US,1685418013
511,coyhaique,-45.5752,-72.0662,7.34,87,40,2.57,CL,1685418013
512,blytheville,35.9273,-89.919,21.99,53,0,1.54,US,1685418013
513,shalqar,47.8333,59.6,26.29,16,86,4.34,KZ,1685418014
514,cartagena,10.3997,-75.5144,27.79,89,75,2.06,CO,1685418014
515,wau,7.7029,27.9953,21.9,92,78,1.7,SS,1685418014
516,pokaran,26.9167,71.9167,26.64,55,100,8.22,IN,1685418014
517,ayaviri,-14.8864,-70.5889,2.5,37,19,1.08,PE,1685418015
518,imbituba,-28.24,-48.6703,19.36,74,62,1.9,BR,1685418015
519,truro,50.2653,-5.0544,12.42,81,90,5.06,GB,1685418015
520,cuito,-12.3833,16.9333,12.53,51,17,1.35,AO,1685418016
521,xai-xai,-25.0519,33.6442,19.49,91,99,2.87,MZ,1685418016
522,touros,-5.1989,-35.4608,24.14,91,38,4.09,BR,1685418016
523,gus'-khrustal'nyy,55.6111,40.6519,14.69,60,49,0.67,RU,1685418017
524,mitu,1.1983,-70.1733,22.49,98,98,0.74,CO,1685418018
525,siluko,6.5386,5.1609,23.94,99,99,0.54,NG,1685418018
526,muisne,0.6,-80.0333,26.11,85,100,4.29,EC,1685418018
527,achacachi,-16.05,-68.6833,5.64,45,1,2.79,BO,1685418018
528,kozel'sk,54.0375,35.7716,13.43,69,0,0.78,RU,1685418019
529,singkil,-7.9855,111.4161,29.74,58,36,1.63,ID,1685418019
530,piracanjuba,-17.3028,-49.0167,18.37,67,50,1.69,BR,1685418019
531,san luis de la loma,17.2706,-100.8939,28.55,72,2,2.54,MX,1685418020
532,aswan,24.0934,32.907,24.61,29,0,1.54,EG,1685418020
533,yanbu,24.0891,38.0637,27.02,89,20,2.57,SA,1685418020
534,concepcion de la sierra,-27.9831,-55.5203,11.47,98,71,1.1,AR,1685418020
535,verkhnedneprovskiy,54.9813,33.3457,12.17,66,0,1.31,RU,1685418021
536,kruisfontein,-34.0033,24.7314,15.49,94,100,3.47,ZA,1685418021
537,north platte,41.1239,-100.7654,17.29,79,100,4.47,US,1685418022
538,williams lake,52.1415,-122.1445,18.76,36,75,4.63,CA,1685418018
539,bamusso,4.4591,8.9027,25.05,89,100,1.33,CM,1685418022
540,mournies,35.4764,24.0092,18.79,88,20,0.0,GR,1685418022
541,essaouira,31.5125,-9.77,16.72,78,20,2.06,MA,1685418023
542,karachi,24.9056,67.0822,29.9,66,75,2.57,PK,1685417762
543,inarajan village,13.2736,144.7484,24.08,85,100,5.08,GU,1685418023
544,la toma,-33.0526,-65.6238,8.75,72,8,3.65,AR,1685418023
545,nabire,-3.3667,135.4833,31.55,61,65,2.45,ID,1685418024
546,palangkaraya,-2.2,113.8333,34.29,47,28,1.08,ID,1685418024
547,sao jose da coroa grande,-8.8978,-35.1478,24.59,85,82,3.3,BR,1685418024
548,latimer,30.5346,-88.8667,24.94,73,75,0.0,US,1685418024
549,fukuecho,32.6881,128.8419,22.2,94,75,2.06,JP,1685418025
550,port isabel,26.0734,-97.2086,27.79,76,75,5.14,US,1685418025
551,shahrak,34.1074,64.3052,14.89,28,0,1.79,AF,1685418026
552,yesilyurt,38.2972,38.2497,11.97,82,28,0.48,TR,1685418026
553,morehead city,34.7229,-76.726,19.99,91,20,1.54,US,1685418026
554,yaren,-0.5472,166.916,29.13,71,99,2.45,NR,1685418026
555,namdrik,5.5994,168.1028,27.09,83,100,7.41,MH,1685418027
556,dauphin,51.1494,-100.0502,16.08,100,40,1.03,CA,1685417790
557,planeta rica,8.4147,-75.5883,24.09,95,100,3.35,CO,1685418027
558,okeho,8.0333,3.35,21.89,96,98,1.6,NG,1685418027
559,palmerston north,-40.35,175.6167,17.25,88,99,0.45,NZ,1685418028
560,bima,-8.4667,118.7167,31.17,55,44,1.28,ID,1685418028
561,punaauia,-17.6333,-149.6,27.57,78,75,4.02,PF,1685418028
562,hammel,56.2576,9.8632,9.89,90,91,1.9,DK,1685418029
563,djebeniana,35.035,10.9081,19.89,82,29,5.91,TN,1685418030
564,chicoana,-25.1009,-65.5331,8.36,86,2,0.14,AR,1685418030
